City,Latitude,Longitude,Max Temperature,Humidity,Cloudiness,Wind Speed,Country,Date
mar del plata,-38.0,-57.56,55.99,81,2,6.93,AR,2020-05-10
pochutla,15.74,-96.47,84.0,79,4,1.79,MX,2020-05-10
labuan,5.28,115.24,91.4,70,75,3.36,MY,2020-05-10
butaritari,3.07,172.79,83.8,76,16,6.96,KI,2020-05-10
puerto ayora,-0.74,-90.35,75.99,94,0,3.0,EC,2020-05-10
albany,42.6,-73.97,45.0,65,100,3.38,US,2020-05-10
jumla,29.27,82.18,63.41,42,60,4.43,NP,2020-05-10
mataura,-46.19,168.86,55.33,75,100,0.36,NZ,2020-05-10
rikitea,-23.12,-134.97,75.2,76,30,10.16,PF,2020-05-10
deputatskiy,69.3,139.9,26.38,99,100,7.29,RU,2020-05-10
kichera,55.94,110.1,39.69,70,67,6.17,RU,2020-05-10
ushuaia,-54.8,-68.3,42.8,81,40,10.29,AR,2020-05-10
nome,64.5,-165.41,53.6,50,90,11.41,US,2020-05-10
port elizabeth,-33.92,25.57,57.2,100,75,10.29,ZA,2020-05-10
vestmannaeyjar,63.44,-20.27,42.53,77,24,15.88,IS,2020-05-10
sao filipe,14.9,-24.5,72.91,74,4,7.07,CV,2020-05-10
eregli,37.51,34.05,58.32,44,59,2.06,TR,2020-05-10
cape town,-33.93,18.42,62.01,93,0,6.93,ZA,2020-05-10
airai,-8.93,125.41,73.71,68,32,4.43,TL,2020-05-10
sabang,5.89,95.32,82.47,78,100,5.93,ID,2020-05-10
atuona,-9.8,-139.03,81.14,78,22,14.29,PF,2020-05-10
chokurdakh,70.63,147.92,33.21,100,100,13.58,RU,2020-05-10
port alfred,-33.59,26.89,62.01,75,0,1.01,ZA,2020-05-10
port blair,11.67,92.75,87.3,67,100,10.22,IN,2020-05-10
kapaa,22.08,-159.32,75.2,78,90,18.34,US,2020-05-10
farnham,51.21,-0.8,39.99,64,31,16.11,GB,2020-05-10
sola,-13.88,167.55,84.2,70,75,6.93,VU,2020-05-10
mao,39.89,4.27,62.6,93,0,11.41,ES,2020-05-10
bluff,-46.6,168.33,54.34,81,100,8.01,NZ,2020-05-10
punta arenas,-53.15,-70.92,42.8,81,75,6.93,CL,2020-05-10
faanui,-16.48,-151.75,82.42,74,47,10.33,PF,2020-05-10
narsaq,60.92,-46.05,57.2,33,32,16.11,GL,2020-05-10
kununurra,-15.77,128.73,87.8,18,0,11.41,AU,2020-05-10
qaanaaq,77.48,-69.36,6.89,76,0,6.04,GL,2020-05-10
rosario,-32.95,-60.64,69.01,64,98,12.75,AR,2020-05-10
carnarvon,-24.87,113.63,77.45,51,0,7.78,AU,2020-05-10
severo-kurilsk,50.68,156.12,35.89,83,100,6.78,RU,2020-05-10
najran,17.49,44.13,71.6,49,0,3.18,SA,2020-05-10
saint-philippe,-21.36,55.77,71.6,60,75,6.93,RE,2020-05-10
arraial do cabo,-22.97,-42.03,71.33,69,0,21.85,BR,2020-05-10
baykit,61.67,96.37,62.35,45,76,8.08,RU,2020-05-10
isaccea,45.27,28.47,59.0,76,38,5.82,RO,2020-05-10
upernavik,72.79,-56.15,14.05,87,95,10.98,GL,2020-05-10
mae sai,20.43,99.88,89.01,70,55,3.36,TH,2020-05-10
asfi,32.3,-9.24,62.76,78,0,4.7,MA,2020-05-10
sao lourenco do sul,-31.37,-51.98,59.0,84,0,7.96,BR,2020-05-10
tiksi,71.69,128.87,30.06,98,99,13.24,RU,2020-05-10
hermanus,-34.42,19.23,54.0,95,0,1.97,ZA,2020-05-10
busselton,-33.65,115.33,70.0,47,69,4.12,AU,2020-05-10
laem sing,12.48,102.07,89.6,75,40,6.93,TH,2020-05-10
lebu,-37.62,-73.65,52.11,85,76,3.62,CL,2020-05-10
sebinkarahisar,40.29,38.42,44.24,61,43,1.05,TR,2020-05-10
tuktoyaktuk,69.45,-133.04,32.0,99,40,9.17,CA,2020-05-10
los llanos de aridane,28.66,-17.92,66.2,77,26,5.82,ES,2020-05-10
yellowknife,62.46,-114.35,39.2,48,20,4.7,CA,2020-05-10
okha,53.57,142.95,50.41,59,100,11.48,RU,2020-05-10
hilo,19.73,-155.09,80.6,57,20,8.05,US,2020-05-10
vaini,-21.2,-175.2,80.6,69,20,14.99,TO,2020-05-10
waipawa,-41.41,175.52,64.4,55,87,13.87,NZ,2020-05-10
san quintin,30.48,-115.95,63.0,83,28,9.8,MX,2020-05-10
castro,-24.79,-50.01,52.56,92,0,4.41,BR,2020-05-10
saskylakh,71.92,114.08,22.91,96,77,13.09,RU,2020-05-10
mpongwe,-13.51,28.16,51.93,96,59,4.65,ZM,2020-05-10
ponta delgada,37.73,-25.67,57.2,58,75,5.82,PT,2020-05-10
cartagena,10.4,-75.51,81.3,86,0,9.46,CO,2020-05-10
fairbanks,64.84,-147.72,80.6,28,1,12.75,US,2020-05-10
cabo san lucas,22.89,-109.91,73.0,76,14,14.5,MX,2020-05-10
husavik,66.04,-17.34,39.2,55,90,23.04,IS,2020-05-10
hofn,64.25,-15.21,41.2,60,1,13.47,IS,2020-05-10
ola,59.58,151.28,42.13,65,64,3.11,RU,2020-05-10
egvekinot,66.32,-179.17,32.65,100,100,3.56,RU,2020-05-10
khromtau,50.25,58.43,59.58,61,100,10.18,KZ,2020-05-10
baturaja,-4.13,104.17,88.93,62,67,1.68,ID,2020-05-10
redlands,34.06,-117.18,75.2,50,20,13.87,US,2020-05-10
hasaki,35.73,140.83,86.0,65,40,12.75,JP,2020-05-10
mareeba,-17.0,145.43,84.2,54,40,20.8,AU,2020-05-10
roanoke rapids,36.46,-77.65,54.0,76,1,5.82,US,2020-05-10
khatanga,71.97,102.5,31.17,99,97,5.35,RU,2020-05-10
lompoc,34.64,-120.46,54.0,87,90,6.93,US,2020-05-10
kenai,60.55,-151.26,53.6,81,1,12.75,US,2020-05-10
lavrentiya,65.58,-171.0,36.99,91,99,6.06,RU,2020-05-10
san andres,12.58,-81.7,84.2,79,75,11.41,CO,2020-05-10
jamestown,42.1,-79.24,46.4,65,90,12.75,US,2020-05-10
carballo,43.21,-8.69,50.0,100,90,4.7,ES,2020-05-10
sibolga,1.74,98.78,88.81,57,100,2.73,ID,2020-05-10
tubuala,9.52,-79.03,82.4,78,100,2.24,PA,2020-05-10
kavieng,-2.57,150.8,86.23,72,82,10.33,PG,2020-05-10
itoman,26.12,127.67,80.01,78,75,8.05,JP,2020-05-10
ouadda,8.08,22.4,69.98,89,98,3.2,CF,2020-05-10
torbay,47.67,-52.73,37.0,80,90,13.87,CA,2020-05-10
port lincoln,-34.73,135.87,61.23,59,100,14.72,AU,2020-05-10
acireale,37.61,15.17,64.4,77,75,9.17,IT,2020-05-10
clyde river,70.47,-68.59,12.2,85,90,5.82,CA,2020-05-10
condega,13.37,-86.4,75.34,78,85,3.76,NI,2020-05-10
new norfolk,-42.78,147.06,57.99,76,91,1.99,AU,2020-05-10
bandarbeyla,9.49,50.81,82.47,73,70,10.16,SO,2020-05-10
ust-kulom,61.69,53.69,55.85,85,100,6.15,RU,2020-05-10
ostrovnoy,68.05,39.51,36.01,84,100,22.39,RU,2020-05-10
barra do corda,-5.5,-45.25,72.72,87,100,2.17,BR,2020-05-10
katsuura,35.13,140.3,82.0,83,40,11.41,JP,2020-05-10
kavaratti,10.57,72.64,87.8,70,40,6.93,IN,2020-05-10
balabac,7.99,117.06,88.09,66,26,9.42,PH,2020-05-10
avarua,-21.21,-159.78,77.0,94,100,3.36,CK,2020-05-10
ulladulla,-35.35,150.47,66.0,34,0,8.05,AU,2020-05-10
polunochnoye,60.87,60.42,60.91,65,100,4.43,RU,2020-05-10
barrow,71.29,-156.79,35.6,74,1,9.17,US,2020-05-10
galle,6.04,80.22,86.11,68,100,2.39,LK,2020-05-10
cherskiy,68.75,161.3,44.19,59,99,20.62,RU,2020-05-10
flinders,-34.58,150.86,68.0,46,0,4.0,AU,2020-05-10
sompeta,18.93,84.6,91.6,54,1,9.69,IN,2020-05-10
kingisepp,59.37,28.61,49.82,64,89,8.21,RU,2020-05-10
payo,-3.75,103.64,91.22,57,72,1.97,ID,2020-05-10
sitka,57.05,-135.33,69.8,30,75,6.93,US,2020-05-10
fortuna,40.6,-124.16,55.99,87,1,6.93,US,2020-05-10
gubbi,13.31,76.94,88.95,28,70,9.24,IN,2020-05-10
ixtapa,20.7,-105.2,74.95,41,48,3.02,MX,2020-05-10
uige,-7.61,15.06,66.38,95,45,0.74,AO,2020-05-10
dikson,73.51,80.55,27.91,98,100,14.14,RU,2020-05-10
sur,22.57,59.53,91.83,31,18,6.17,OM,2020-05-10
hobart,-42.88,147.33,57.99,71,90,5.99,AU,2020-05-10
bredasdorp,-34.53,20.04,59.0,87,0,5.82,ZA,2020-05-10
chuy,-33.7,-53.46,64.99,79,32,7.65,UY,2020-05-10
cabedelo,-6.98,-34.83,75.2,94,20,5.82,BR,2020-05-10
rocha,-34.48,-54.33,66.18,77,57,10.71,UY,2020-05-10
leningradskiy,69.38,178.42,35.56,94,93,11.18,RU,2020-05-10
iqaluit,63.75,-68.51,24.8,73,90,31.09,CA,2020-05-10
bereda,43.27,-7.54,51.01,1,17,1.28,ES,2020-05-10
nautla,20.22,-96.78,74.82,85,16,4.54,MX,2020-05-10
half moon bay,37.46,-122.43,57.99,87,90,10.29,US,2020-05-10
pacific grove,36.62,-121.92,55.0,91,96,1.01,US,2020-05-10
gigmoto,13.78,124.39,86.52,71,88,5.88,PH,2020-05-10
ewa beach,21.32,-158.01,82.4,48,40,13.87,US,2020-05-10
mugur-aksy,50.35,90.5,57.61,30,0,3.8,RU,2020-05-10
tautira,-17.73,-149.15,82.4,74,100,5.82,PF,2020-05-10
pangai,-19.8,-174.35,82.4,74,20,9.17,TO,2020-05-10
ponta do sol,32.67,-17.1,64.4,72,40,5.82,PT,2020-05-10
banjar,-8.19,114.97,86.0,84,20,10.29,ID,2020-05-10
kodiak,57.79,-152.41,50.0,66,20,10.29,US,2020-05-10
batemans bay,-35.72,150.18,66.0,36,0,6.46,AU,2020-05-10
acari,-15.43,-74.62,68.92,69,42,3.18,PE,2020-05-10
naze,28.37,129.48,78.8,65,20,11.41,JP,2020-05-10
port-gentil,-0.72,8.78,76.69,85,100,6.6,GA,2020-05-10
tiznit,29.58,-9.5,55.8,87,74,6.82,MA,2020-05-10
thompson,55.74,-97.86,24.8,49,5,6.93,CA,2020-05-10
labrea,-7.26,-64.8,73.9,95,28,1.45,BR,2020-05-10
lagoa,39.05,-27.98,57.18,73,43,23.78,PT,2020-05-10
kuloy,61.03,42.49,47.5,77,84,3.74,RU,2020-05-10
lata,40.16,-8.33,57.99,97,99,7.0,PT,2020-05-10
tripoli,32.88,13.19,78.96,34,5,8.03,LY,2020-05-10
cidreira,-30.18,-50.21,65.95,71,100,8.34,BR,2020-05-10
sandakan,5.84,118.12,89.6,70,40,6.93,MY,2020-05-10
hoima,1.44,31.34,64.9,95,100,4.85,UG,2020-05-10
pangnirtung,66.15,-65.71,22.48,91,100,12.68,CA,2020-05-10
tulum,20.22,-87.47,77.0,100,32,1.99,MX,2020-05-10
bengkulu,-3.8,102.27,87.04,64,91,2.51,ID,2020-05-10
saldanha,-33.01,17.94,59.0,87,0,6.93,ZA,2020-05-10
port augusta,-32.5,137.77,64.4,39,93,8.05,AU,2020-05-10
codrington,-38.27,141.97,62.13,57,60,10.51,AU,2020-05-10
henties bay,-22.12,14.28,69.08,48,27,0.98,NA,2020-05-10
poronaysk,49.22,143.12,42.62,82,100,7.67,RU,2020-05-10
plettenberg bay,-34.05,23.37,61.05,69,0,4.54,ZA,2020-05-10
rock sound,24.9,-76.2,76.06,85,100,11.68,BS,2020-05-10
san patricio,19.22,-104.7,72.5,80,18,2.75,MX,2020-05-10
thinadhoo,0.53,72.93,85.59,78,26,14.16,MV,2020-05-10
hambantota,6.12,81.12,84.2,94,75,6.93,LK,2020-05-10
hithadhoo,-0.6,73.08,85.48,77,78,11.63,MV,2020-05-10
yanam,16.73,82.22,89.6,66,40,5.53,IN,2020-05-10
nanortalik,60.14,-45.24,43.36,79,70,19.35,GL,2020-05-10
georgetown,5.41,100.34,87.8,79,20,4.7,MY,2020-05-10
yatou,37.15,122.38,69.85,36,60,11.95,CN,2020-05-10
oni,42.58,43.44,45.61,63,55,1.48,GE,2020-05-10
tilichiki,60.47,166.1,31.62,100,100,1.01,RU,2020-05-10
shirokiy,49.76,129.52,56.84,37,94,6.31,RU,2020-05-10
mahebourg,-20.41,57.7,73.4,56,75,11.41,MU,2020-05-10
denpasar,-8.65,115.22,86.0,84,20,10.29,ID,2020-05-10
oranjemund,-28.55,16.43,70.66,34,0,4.7,NA,2020-05-10
namatanai,-3.67,152.43,85.95,70,50,6.2,PG,2020-05-10
guerrero negro,27.98,-114.06,63.0,82,100,13.69,MX,2020-05-10
la libertad,-2.23,-80.9,75.7,83,13,7.72,EC,2020-05-10
east london,-33.02,27.91,68.0,40,0,10.29,ZA,2020-05-10
jiwani,25.05,61.74,84.96,68,11,9.95,PK,2020-05-10
zunyi,27.69,106.91,67.51,77,94,9.37,CN,2020-05-10
coquimbo,-29.95,-71.34,51.8,87,0,4.7,CL,2020-05-10
farsund,58.09,6.8,37.99,57,0,5.01,NO,2020-05-10
bethel,41.37,-73.41,53.6,37,1,6.93,US,2020-05-10
road town,18.42,-64.62,81.0,88,4,3.0,VG,2020-05-10
paamiut,61.99,-49.67,41.36,77,100,11.7,GL,2020-05-10
jackson,42.42,-122.83,78.8,19,1,11.41,US,2020-05-10
turukhansk,65.82,87.98,51.06,64,1,10.87,RU,2020-05-10
presidencia roque saenz pena,-26.79,-60.44,76.05,59,84,7.49,AR,2020-05-10
kerrville,30.05,-99.14,64.4,48,1,5.82,US,2020-05-10
uyemskiy,64.47,40.85,39.2,80,33,4.47,RU,2020-05-10
alofi,-19.06,-169.92,84.2,79,0,5.82,NU,2020-05-10
acapulco,16.86,-99.89,82.4,78,5,5.82,MX,2020-05-10
qaqortoq,60.72,-46.03,57.2,33,54,16.11,GL,2020-05-10
cururupu,-1.83,-44.87,74.84,94,21,2.08,BR,2020-05-10
bafra,41.57,35.91,46.4,87,14,4.9,TR,2020-05-10
phan thiet,10.93,108.1,91.06,51,90,9.75,VN,2020-05-10
tabou,4.42,-7.35,79.93,85,99,9.48,CI,2020-05-10
namibe,-15.2,12.15,77.76,50,37,1.99,AO,2020-05-10
pisco,-13.7,-76.22,66.2,82,19,5.82,PE,2020-05-10
port-cartier,50.03,-66.87,37.99,64,20,12.75,CA,2020-05-10
ambulu,-8.35,113.61,85.62,69,100,6.31,ID,2020-05-10
pabna,24.0,89.25,98.11,33,0,7.52,BD,2020-05-10
olinda,-8.01,-34.86,82.4,69,40,6.93,BR,2020-05-10
mogadishu,2.04,45.34,78.8,65,40,8.05,SO,2020-05-10
ketchikan,55.34,-131.65,71.6,21,1,4.7,US,2020-05-10
margate,51.38,1.39,46.99,37,63,20.0,GB,2020-05-10
kaseda,31.42,130.32,80.01,57,20,8.05,JP,2020-05-10
birjand,32.87,59.22,66.2,29,63,9.17,IR,2020-05-10
pemangkat,1.17,108.97,86.07,70,98,5.73,ID,2020-05-10
tazovskiy,67.47,78.7,32.52,100,100,0.83,RU,2020-05-10
saint george,37.1,-113.58,75.2,36,40,19.46,US,2020-05-10
naron,43.52,-8.15,48.2,100,90,4.7,ES,2020-05-10
cabo rojo,18.09,-67.15,81.0,88,1,9.28,PR,2020-05-10
kutulik,53.35,102.78,61.84,30,20,8.21,RU,2020-05-10
ocampo,21.65,-101.5,56.91,75,7,16.84,MX,2020-05-10
norman wells,65.28,-126.83,59.0,38,40,5.82,CA,2020-05-10
terney,45.05,136.61,50.11,84,100,2.04,RU,2020-05-10
salinas,36.68,-121.66,59.0,71,1,11.41,US,2020-05-10
nikolskoye,59.7,30.79,48.2,45,86,11.18,RU,2020-05-10
oistins,13.07,-59.53,80.6,78,40,20.8,BB,2020-05-10
kahului,20.89,-156.47,80.6,57,20,20.8,US,2020-05-10
nata,8.33,-80.52,80.01,55,100,4.38,PA,2020-05-10
litovko,49.24,135.17,60.03,47,86,4.09,RU,2020-05-10
bella vista,36.43,-94.23,51.8,62,90,3.36,US,2020-05-10
diffa,13.32,12.61,78.84,16,46,7.29,NE,2020-05-10
dunedin,-45.87,170.5,57.16,69,96,8.08,NZ,2020-05-10
sakaiminato,35.55,133.23,77.0,36,20,24.16,JP,2020-05-10
fengzhen,40.44,113.15,63.09,27,0,27.74,CN,2020-05-10
panaba,21.28,-88.27,74.7,92,15,5.66,MX,2020-05-10
pasni,25.26,63.47,83.23,74,11,8.14,PK,2020-05-10
huarmey,-10.07,-78.15,67.23,84,69,8.25,PE,2020-05-10
palana,59.12,159.97,29.89,100,99,8.86,RU,2020-05-10
san cristobal,7.77,-72.22,69.66,80,26,3.31,VE,2020-05-10
lotofaga,-13.98,-171.86,89.01,75,4,5.01,WS,2020-05-10
yulara,-25.24,130.99,62.6,29,100,11.41,AU,2020-05-10
laives,46.42,11.33,52.0,92,100,4.0,IT,2020-05-10
kortkeros,61.81,51.58,48.2,93,90,2.24,RU,2020-05-10
nakhon phanom,17.41,104.78,99.0,44,90,11.41,TH,2020-05-10
college,64.86,-147.8,80.6,18,20,11.41,US,2020-05-10
nishihara,26.18,127.76,80.01,83,90,3.36,JP,2020-05-10
souillac,-20.52,57.52,73.4,56,75,11.41,MU,2020-05-10
sinnamary,5.38,-52.95,78.12,90,99,14.88,GF,2020-05-10
bonavista,48.65,-53.11,33.1,92,10,21.99,CA,2020-05-10
ferme-neuve,46.7,-75.45,30.24,95,82,5.5,CA,2020-05-10
pevek,69.7,170.31,37.45,79,3,18.59,RU,2020-05-10
vicuna,-30.03,-70.71,51.8,87,0,4.7,CL,2020-05-10
ribeira grande,38.52,-28.7,57.81,71,7,18.16,PT,2020-05-10
lasa,46.62,10.7,52.0,100,75,18.34,IT,2020-05-10
morondava,-20.28,44.28,75.22,66,88,6.51,MG,2020-05-10
gonaives,19.45,-72.68,80.4,71,47,3.67,HT,2020-05-10
buriti dos lopes,-3.17,-41.87,73.63,95,95,1.66,BR,2020-05-10
hare bay,48.85,-54.01,33.8,69,90,17.22,CA,2020-05-10
ulaanbaatar,47.91,106.88,60.8,29,40,31.32,MN,2020-05-10
longyearbyen,78.22,15.64,19.4,62,40,3.36,SJ,2020-05-10
strezhevoy,60.73,77.59,71.6,37,100,6.71,RU,2020-05-10
teknaf,20.86,92.31,91.53,47,0,6.02,BD,2020-05-10
kandrian,-6.22,149.55,82.98,84,100,13.04,PG,2020-05-10
humberto de campos,-2.6,-43.46,74.84,93,35,3.65,BR,2020-05-10
itarema,-2.92,-39.92,75.87,85,62,7.58,BR,2020-05-10
broken hill,-31.95,141.43,60.8,36,45,10.29,AU,2020-05-10
broome,42.25,-75.83,46.4,88,90,2.98,US,2020-05-10
pristina,42.67,21.17,53.01,76,40,1.12,XK,2020-05-10
ancud,-41.87,-73.82,48.99,100,75,2.24,CL,2020-05-10
provideniya,64.38,-173.3,36.81,92,100,9.19,RU,2020-05-10
santa clara,22.4,-79.97,71.6,100,75,3.36,CU,2020-05-10
takoradi,4.88,-1.76,73.62,91,100,2.57,GH,2020-05-10
pyaozerskiy,65.83,31.17,36.97,90,100,13.22,RU,2020-05-10
kantang,7.41,99.52,87.8,74,20,4.7,TH,2020-05-10
sao jose de ribamar,-2.56,-44.05,77.0,100,40,4.7,BR,2020-05-10
tukrah,32.53,20.58,76.41,19,13,24.0,LY,2020-05-10
whyalla,-33.03,137.58,64.4,39,96,8.05,AU,2020-05-10
saint anthony,45.02,-93.22,46.4,42,90,9.17,US,2020-05-10
andenes,69.31,16.12,33.8,82,94,12.75,NO,2020-05-10
tiarei,-17.53,-149.33,82.4,74,97,5.82,PF,2020-05-10
boa vista,2.82,-60.67,82.4,74,90,11.41,BR,2020-05-10
taoudenni,22.68,-3.98,88.88,12,100,10.83,ML,2020-05-10
atar,20.52,-13.05,79.11,20,23,11.32,MR,2020-05-10
isetskoye,56.49,65.32,66.31,68,100,4.14,RU,2020-05-10
kailua,21.4,-157.74,87.8,48,1,11.41,US,2020-05-10
komsomolskiy,40.43,71.72,73.4,46,4,4.7,UZ,2020-05-10
poum,-20.23,164.02,75.13,72,58,6.78,NC,2020-05-10
ust-omchug,61.15,149.63,33.48,89,95,3.42,RU,2020-05-10
radviliskis,55.82,23.53,50.0,87,90,11.41,LT,2020-05-10
talnakh,69.49,88.4,37.4,69,75,13.42,RU,2020-05-10
bilibino,68.05,166.44,37.04,78,93,21.07,RU,2020-05-10
olonets,60.98,32.97,43.59,67,90,8.43,RU,2020-05-10
loandjili,-4.76,11.86,75.52,89,100,5.19,CG,2020-05-10
micheweni,-4.97,39.83,79.68,78,100,12.97,TZ,2020-05-10
soller,39.77,2.72,63.0,72,0,5.82,ES,2020-05-10
grindavik,63.84,-22.43,42.8,87,75,10.29,IS,2020-05-10
richards bay,-28.78,32.04,60.64,70,0,7.11,ZA,2020-05-10
quzhou,28.96,118.87,81.39,63,18,1.34,CN,2020-05-10
omboue,-1.57,9.26,73.58,91,100,0.38,GA,2020-05-10
batagay,67.63,134.63,34.77,86,100,7.56,RU,2020-05-10
bathsheba,13.22,-59.52,80.6,78,40,20.8,BB,2020-05-10
altoona,40.52,-78.39,51.8,43,40,5.82,US,2020-05-10
yamada,39.47,141.95,71.62,47,0,13.6,JP,2020-05-10
wakefield,53.68,-1.5,37.99,73,26,1.99,GB,2020-05-10
kiri buru,22.08,85.35,99.19,22,0,5.77,IN,2020-05-10
yizheng,24.67,103.43,80.01,43,0,4.92,CN,2020-05-10
oranjestad,12.52,-70.03,80.6,78,20,24.16,AW,2020-05-10
camocim,-2.9,-40.84,75.09,86,83,6.44,BR,2020-05-10
alberton,46.82,-64.07,39.0,39,40,22.41,CA,2020-05-10
kaitangata,-46.28,169.85,54.0,78,91,1.01,NZ,2020-05-10
pavilosta,56.89,21.19,51.8,93,100,2.24,LV,2020-05-10
wayne,42.25,-83.28,39.0,86,90,9.17,US,2020-05-10
vila franca do campo,37.72,-25.43,57.2,58,75,5.82,PT,2020-05-10
jizan,17.33,42.67,89.6,59,1,4.7,SA,2020-05-10
uyuni,-20.46,-66.83,43.07,52,21,7.78,BO,2020-05-10
barkly west,-28.54,24.52,44.6,87,0,1.12,ZA,2020-05-10
tasiilaq,65.61,-37.64,28.4,79,9,6.93,GL,2020-05-10
beryslav,46.84,33.43,56.03,75,0,8.79,UA,2020-05-10
humboldt,40.67,-123.92,55.99,87,1,6.93,US,2020-05-10
san policarpo,12.18,125.51,85.5,72,100,7.61,PH,2020-05-10
lujan,-34.57,-59.1,66.99,71,92,3.0,AR,2020-05-10
marfino,55.7,37.38,51.01,53,46,4.47,RU,2020-05-10
abong mbang,3.98,13.18,68.22,99,100,2.64,CM,2020-05-10
salalah,17.02,54.09,82.4,83,20,4.7,OM,2020-05-10
talcahuano,-36.72,-73.12,48.2,100,75,2.24,CL,2020-05-10
aktash,50.3,87.73,57.27,32,76,3.67,RU,2020-05-10
solnechnyy,50.72,136.63,52.03,68,100,3.22,RU,2020-05-10
riyadh,24.69,46.72,80.6,36,99,5.82,SA,2020-05-10
mehamn,71.04,27.85,33.8,86,75,16.11,NO,2020-05-10
eydhafushi,5.1,73.07,84.7,73,100,7.52,MV,2020-05-10
tutoia,-2.76,-42.27,77.05,88,98,4.21,BR,2020-05-10
ylivieska,64.08,24.55,35.01,94,100,5.01,FI,2020-05-10
vardo,70.37,31.11,32.0,97,75,17.22,NO,2020-05-10
cabra,37.47,-4.44,55.0,79,63,1.99,ES,2020-05-10
lakes entrance,-37.88,147.98,66.0,50,0,1.01,AU,2020-05-10
guanay,-15.5,-67.88,69.28,83,100,0.67,BO,2020-05-10
amalapuram,16.58,82.02,89.6,66,40,5.35,IN,2020-05-10
puerto ayacucho,5.66,-67.62,76.5,89,75,4.72,VE,2020-05-10
tura,25.52,90.22,93.78,34,9,3.53,IN,2020-05-10
hernani,43.27,-1.98,57.2,87,90,10.29,ES,2020-05-10
bosaso,11.28,49.18,90.5,47,58,12.15,SO,2020-05-10
humaita,-7.51,-63.02,74.23,97,32,1.41,BR,2020-05-10
gayny,60.31,54.32,55.29,81,100,4.76,RU,2020-05-10
portlethen,57.05,-2.13,35.6,80,9,10.29,GB,2020-05-10
buin,-33.73,-70.75,51.8,71,0,2.24,CL,2020-05-10
adrar,20.5,-10.07,81.55,17,1,11.65,MR,2020-05-10
faya,18.39,42.45,66.2,77,0,4.32,SA,2020-05-10
kroya,-7.63,109.25,82.08,81,100,7.43,ID,2020-05-10
cedar rapids,42.01,-91.64,43.0,86,90,8.05,US,2020-05-10
bongandanga,1.5,21.05,70.52,98,92,1.9,CD,2020-05-10
bay city,43.59,-83.89,39.0,93,90,3.36,US,2020-05-10
sorland,67.67,12.69,35.6,80,40,19.46,NO,2020-05-10
mahon,39.89,4.27,62.6,82,0,13.87,ES,2020-05-10
talara,-4.58,-81.27,72.07,80,46,13.65,PE,2020-05-10
geraldton,-28.77,114.6,73.4,49,92,13.87,AU,2020-05-10
kjollefjord,70.95,27.35,33.8,86,75,16.11,NO,2020-05-10
jasper,37.2,-94.35,48.2,70,1,5.91,US,2020-05-10
haimen,23.19,116.61,84.2,70,75,6.71,CN,2020-05-10
padang,-0.95,100.35,88.56,58,100,4.27,ID,2020-05-10
anadyr,64.75,177.48,35.6,92,75,22.37,RU,2020-05-10
jutai,-5.18,-68.9,72.57,97,54,1.72,BR,2020-05-10
svetlogorsk,52.63,29.73,51.64,80,15,6.73,BY,2020-05-10
olafsvik,64.89,-23.71,43.07,78,98,14.07,IS,2020-05-10
praia da vitoria,38.73,-27.07,57.2,67,75,22.57,PT,2020-05-10
nabire,-3.37,135.48,81.93,77,100,1.14,ID,2020-05-10
barra do garcas,-15.89,-52.26,68.9,86,10,1.88,BR,2020-05-10
ushtobe,45.25,77.98,73.36,38,73,6.98,KZ,2020-05-10
kingston,18.0,-76.79,82.4,69,20,19.46,JM,2020-05-10
cam ranh,11.92,109.16,93.2,59,20,6.93,VN,2020-05-10
show low,34.25,-110.03,55.4,62,90,9.17,US,2020-05-10
rawson,-43.3,-65.1,52.43,58,74,24.72,AR,2020-05-10
moree,-29.47,149.85,64.4,39,0,7.81,AU,2020-05-10
nouadhibou,20.93,-17.03,66.56,79,62,22.39,MR,2020-05-10
bohodukhiv,50.16,35.53,52.7,85,0,6.35,UA,2020-05-10
caravelas,-17.71,-39.25,69.73,79,10,4.07,BR,2020-05-10
plouzane,48.38,-4.62,48.2,76,90,28.86,FR,2020-05-10
la tuque,47.43,-72.78,28.87,98,53,6.02,CA,2020-05-10
arrecife,28.96,-13.55,68.0,72,90,8.05,ES,2020-05-10
cayenne,4.93,-52.33,77.0,100,90,2.24,GF,2020-05-10
kazachinskoye,57.7,93.28,71.35,43,100,1.83,RU,2020-05-10
einsiedeln,47.12,8.75,59.0,72,75,4.7,CH,2020-05-10
oltu,40.55,42.0,42.12,67,87,0.4,TR,2020-05-10
am timan,11.03,20.28,82.56,53,21,7.38,TD,2020-05-10
ostwald,48.54,7.71,60.8,82,90,17.22,FR,2020-05-10
machacamarca,-18.17,-67.03,45.32,50,39,4.23,BO,2020-05-10
gizo,-8.1,156.84,84.16,77,100,15.26,SB,2020-05-10
cabinda,-5.55,12.2,77.05,87,99,5.1,AO,2020-05-10
emirdag,39.02,31.15,56.46,55,84,2.73,TR,2020-05-10
ahipara,-35.17,173.17,63.61,66,79,8.14,NZ,2020-05-10
kalur kot,32.16,71.26,94.46,26,100,7.74,PK,2020-05-10
kupang,-10.17,123.58,89.6,52,20,10.29,ID,2020-05-10
kaeo,-35.1,173.78,63.0,15,74,5.99,NZ,2020-05-10
murgab,37.5,61.97,71.6,56,0,4.7,TM,2020-05-10
harper,4.38,-7.72,80.47,84,100,10.78,LR,2020-05-10
arcata,40.87,-124.08,55.99,87,1,3.36,US,2020-05-10
sydney,-33.87,151.21,68.0,45,0,11.41,AU,2020-05-10
tocopilla,-22.09,-70.2,62.73,65,24,4.85,CL,2020-05-10
pizarro,4.95,-77.37,79.18,88,100,3.42,CO,2020-05-10
shira,54.49,89.95,71.98,30,51,1.43,RU,2020-05-10
capitan bado,-23.27,-55.53,64.72,75,2,12.41,PY,2020-05-10
nhulunbuy,-12.23,136.77,86.0,62,75,13.87,AU,2020-05-10
nyurba,63.28,118.33,44.76,58,68,11.39,RU,2020-05-10
zambezi,-13.54,23.1,55.33,89,23,4.61,ZM,2020-05-10
sloboda,51.14,40.3,50.34,90,100,12.39,RU,2020-05-10
ferrol,43.48,-8.24,48.2,100,90,4.7,ES,2020-05-10
aklavik,68.22,-135.01,46.4,45,40,10.29,CA,2020-05-10
methoni,36.82,21.7,61.0,87,40,8.72,GR,2020-05-10
wagar,16.15,36.2,80.87,53,46,8.14,SD,2020-05-10
odoyev,53.94,36.69,47.86,84,8,6.29,RU,2020-05-10
bilma,18.69,12.92,78.96,14,0,6.4,NE,2020-05-10
vila velha,-20.33,-40.29,66.0,93,93,2.24,BR,2020-05-10
usinsk,65.99,57.53,43.41,68,89,13.8,RU,2020-05-10
basoko,1.24,23.62,71.37,93,55,2.3,CD,2020-05-10
atherton,53.52,-2.49,39.0,72,0,1.99,GB,2020-05-10
polson,47.69,-114.16,50.0,47,73,8.01,US,2020-05-10
minna,9.61,6.56,80.6,78,20,12.75,NG,2020-05-10
touros,-5.2,-35.46,75.2,100,40,4.7,BR,2020-05-10
morgan city,29.7,-91.21,66.2,93,1,5.84,US,2020-05-10
port hedland,-20.32,118.57,91.4,11,71,16.11,AU,2020-05-10
kontagora,10.4,5.47,76.8,80,98,5.5,NG,2020-05-10
teguldet,57.31,88.17,79.03,37,8,2.01,RU,2020-05-10
stornoway,58.21,-6.39,33.01,79,91,3.36,GB,2020-05-10
le port,-20.94,55.29,71.6,60,89,10.29,RE,2020-05-10
harrison,30.41,-89.04,64.4,55,1,6.93,US,2020-05-10
dingle,11.0,122.67,93.67,47,100,6.46,PH,2020-05-10
stromness,58.97,-3.3,37.99,64,98,10.29,GB,2020-05-10
yarmouth,41.71,-70.23,50.0,66,1,20.8,US,2020-05-10
benalla,-36.55,145.98,60.01,66,4,4.7,AU,2020-05-10
moron,-34.65,-58.62,69.01,68,85,1.99,AR,2020-05-10
arlit,18.74,7.39,84.43,13,0,11.36,NE,2020-05-10
kargasok,59.06,80.86,77.49,33,59,3.4,RU,2020-05-10
saint-joseph,-21.37,55.62,71.6,60,75,6.93,RE,2020-05-10
colares,38.8,-9.45,61.0,87,54,20.49,PT,2020-05-10
kondinskoye,59.65,67.41,70.7,49,68,6.76,RU,2020-05-10
luderitz,-26.65,15.16,66.2,45,0,6.93,NA,2020-05-10
lac du bonnet,50.25,-96.06,30.0,60,49,5.99,CA,2020-05-10
auki,-8.77,160.7,84.63,77,93,6.58,SB,2020-05-10
bambous virieux,-20.34,57.76,73.4,56,75,11.41,MU,2020-05-10
gisborne,-38.65,178.0,60.01,70,75,3.0,NZ,2020-05-10
yaan,7.38,8.57,75.16,90,66,5.59,NG,2020-05-10
mount isa,-20.73,139.5,77.0,13,0,11.41,AU,2020-05-10
la asuncion,11.03,-63.86,78.8,94,17,17.22,VE,2020-05-10
miri,4.41,114.01,82.4,83,75,11.41,MY,2020-05-10
hamilton,39.18,-84.53,46.99,67,13,5.01,US,2020-05-10
zavitinsk,50.12,129.45,52.59,52,96,10.8,RU,2020-05-10
marovoay,-16.1,46.63,71.6,73,20,5.82,MG,2020-05-10
kuching,1.55,110.33,89.6,70,40,3.36,MY,2020-05-10
ayan,56.45,138.17,35.55,84,30,14.81,RU,2020-05-10
igrim,63.19,64.42,55.44,73,38,9.13,RU,2020-05-10
burnie,-41.07,145.92,61.0,60,75,4.0,AU,2020-05-10
barcelona,41.39,2.16,61.0,77,20,14.99,ES,2020-05-10
pokhara,28.23,83.98,80.53,38,91,2.39,NP,2020-05-10
dudinka,69.41,86.18,37.4,69,64,13.42,RU,2020-05-10
mets masrik,40.22,45.77,41.65,65,0,0.47,AM,2020-05-10
avera,33.19,-82.53,57.2,82,1,5.77,US,2020-05-10
mubi,10.27,13.26,80.76,60,25,2.98,NG,2020-05-10
isangel,-19.55,169.27,78.8,61,20,9.17,VU,2020-05-10
samana,19.21,-69.34,76.24,87,100,5.57,DO,2020-05-10
ormara,25.21,64.64,83.34,71,31,9.62,PK,2020-05-10
tuatapere,-46.13,167.68,52.54,91,100,3.69,NZ,2020-05-10
whitehorse,60.72,-135.05,62.6,23,20,3.36,CA,2020-05-10
khash,28.22,61.22,81.66,19,60,2.77,IR,2020-05-10
porto novo,6.5,2.6,77.0,88,40,2.24,BJ,2020-05-10
ziro,27.63,93.83,74.08,50,4,1.59,IN,2020-05-10
ust-shonosha,61.15,41.34,47.28,75,0,3.4,RU,2020-05-10
berja,36.85,-2.95,59.0,82,0,2.24,ES,2020-05-10
mezen,65.85,44.24,37.45,85,3,6.93,RU,2020-05-10
yenagoa,4.92,6.26,74.17,94,66,0.85,NG,2020-05-10
udachnyy,66.42,112.4,30.2,63,90,8.95,RU,2020-05-10
kisangani,0.52,25.2,69.51,98,40,1.54,CD,2020-05-10
necochea,-38.55,-58.74,54.0,59,0,8.01,AR,2020-05-10
parrita,9.52,-84.32,73.4,88,40,3.36,CR,2020-05-10
neepawa,50.23,-99.47,30.2,54,40,11.41,CA,2020-05-10
mandalgovi,45.76,106.27,62.91,29,19,27.45,MN,2020-05-10
hailun,47.45,126.93,57.47,41,100,15.9,CN,2020-05-10
srednekolymsk,67.45,153.68,41.92,69,60,12.12,RU,2020-05-10
novoseleznevo,55.68,69.21,72.57,54,29,7.29,RU,2020-05-10
bonaventure,48.05,-65.49,39.99,69,40,19.46,CA,2020-05-10
aripuana,-9.17,-60.63,72.86,97,95,1.3,BR,2020-05-10
mendoza,-32.89,-68.83,60.8,48,44,8.05,AR,2020-05-10
portland,45.52,-122.68,78.01,29,1,7.25,US,2020-05-10
juegang,32.32,121.19,81.0,50,0,1.12,CN,2020-05-10
dombarovskiy,50.76,59.54,62.4,57,97,5.46,RU,2020-05-10
te anau,-45.42,167.72,50.52,90,100,1.45,NZ,2020-05-10
san jeronimo,-11.95,-75.28,47.46,75,83,0.65,PE,2020-05-10
vikulovo,56.82,70.61,72.0,39,65,7.99,RU,2020-05-10
waingapu,-9.66,120.26,85.28,63,9,12.66,ID,2020-05-10
fonte boa,-2.5,-66.27,72.41,96,44,1.3,BR,2020-05-10
ust-ishim,57.69,71.17,67.89,49,97,4.54,RU,2020-05-10
victoria,22.29,114.16,89.01,62,27,5.99,HK,2020-05-10
grand gaube,-20.01,57.66,73.0,63,100,3.0,MU,2020-05-10
bodden town,19.28,-81.25,82.99,74,100,5.99,KY,2020-05-10
dalvik,65.97,-18.53,39.2,55,90,23.04,IS,2020-05-10
quito,-0.23,-78.52,59.0,93,90,4.7,EC,2020-05-10
chicama,-7.84,-79.15,69.93,78,83,4.54,PE,2020-05-10
matata,-37.88,176.75,66.0,61,1,4.14,NZ,2020-05-10
cacu,-18.56,-51.13,64.15,82,0,6.11,BR,2020-05-10
nancha,47.13,129.27,62.85,29,99,8.03,CN,2020-05-10
chumikan,54.72,135.31,32.61,97,100,8.77,RU,2020-05-10
lingao,19.91,109.69,87.57,69,28,6.91,CN,2020-05-10
srandakan,-7.94,110.25,82.99,79,95,8.19,ID,2020-05-10
gat,31.61,34.76,63.0,68,0,2.93,IL,2020-05-10
blyth,55.13,-1.51,41.0,69,84,9.17,GB,2020-05-10
vanimo,-2.67,141.3,87.06,65,70,2.17,PG,2020-05-10
mahibadhoo,3.78,72.97,84.76,79,100,15.59,MV,2020-05-10
dasoguz,41.84,59.97,77.0,41,15,9.17,TM,2020-05-10
gbarnga,7.0,-9.47,72.63,97,87,3.18,LR,2020-05-10
loding,67.3,14.75,35.6,74,75,10.29,NO,2020-05-10
yambio,4.57,28.4,68.72,94,98,3.31,SS,2020-05-10
tombouctou,20.0,-3.0,87.33,12,2,12.21,ML,2020-05-10
tsiroanomandidy,-18.77,46.03,61.56,82,89,3.02,MG,2020-05-10
grand forks,47.93,-97.03,36.0,47,1,16.11,US,2020-05-10
mount gambier,-37.83,140.77,59.0,77,75,13.87,AU,2020-05-10
belaya gora,68.53,146.42,33.28,99,100,8.21,RU,2020-05-10
conceicao da barra,-18.59,-39.73,66.09,81,32,3.4,BR,2020-05-10
navahrudak,53.6,25.83,52.05,75,76,12.77,BY,2020-05-10
kabo,7.7,18.63,74.95,84,90,4.94,CF,2020-05-10
buraydah,26.33,43.98,77.0,44,99,9.17,SA,2020-05-10
krasnoselkup,65.7,82.47,45.64,77,10,7.65,RU,2020-05-10
cairns,-16.92,145.77,84.2,54,40,20.8,AU,2020-05-10
byron bay,-28.65,153.62,66.2,63,40,19.46,AU,2020-05-10
salina cruz,16.17,-95.2,83.91,59,13,23.55,MX,2020-05-10
lagos,6.58,3.75,78.8,94,20,3.36,NG,2020-05-10
verkhnyaya inta,65.98,60.31,42.31,80,70,9.24,RU,2020-05-10
jalalabad,34.43,70.45,82.4,48,75,4.07,AF,2020-05-10
nampula,-15.12,39.27,64.4,93,75,9.17,MZ,2020-05-10
pritzwalk,53.15,12.17,46.0,80,100,4.0,DE,2020-05-10
kinsale,51.71,-8.53,42.01,60,75,16.11,IE,2020-05-10
brigham city,41.51,-112.02,73.4,15,40,3.36,US,2020-05-10
meulaboh,4.14,96.13,85.39,72,100,6.73,ID,2020-05-10
nuuk,64.18,-51.72,46.4,61,99,9.17,GL,2020-05-10
sibiti,-3.68,13.35,68.92,100,100,2.08,CG,2020-05-10
havoysund,71.0,24.66,33.8,82,90,14.99,NO,2020-05-10
aketi,2.74,23.78,70.2,97,53,0.65,CD,2020-05-10
tshikapa,-6.42,20.8,70.66,87,80,1.1,CD,2020-05-10
luoyang,34.68,112.45,75.06,19,4,17.16,CN,2020-05-10
benguela,-12.58,13.41,76.21,67,97,3.74,AO,2020-05-10
havre-saint-pierre,50.23,-63.6,35.6,80,20,19.46,CA,2020-05-10
vezirkopru,41.14,35.45,42.8,81,4,1.01,TR,2020-05-10
kloulklubed,7.04,134.26,82.83,76,97,5.46,PW,2020-05-10
bytow,54.17,17.49,57.0,80,84,8.86,PL,2020-05-10
burgersdorp,-31.0,26.33,45.79,57,0,1.79,ZA,2020-05-10
matagami,49.75,-77.63,17.6,92,90,14.99,CA,2020-05-10
varkkallai,8.73,76.71,86.0,79,75,3.36,IN,2020-05-10
sambava,-14.27,50.17,75.52,81,94,14.12,MG,2020-05-10
zapolyarnyy,69.42,30.81,32.0,97,90,10.29,RU,2020-05-10
pandan,14.05,124.17,87.64,66,71,5.97,PH,2020-05-10
williston,48.15,-103.62,39.0,49,68,5.66,US,2020-05-10
